Longitude;Latitude;FID;name;total_slot;operative;id
24.950292890004903;60.155444793742276;1;Kaivopuisto;30;Yes;001
24.956347471358754;60.160959093887129;2;Laivasillankatu;12;Yes;002
24.944927399779715;60.158189199971673;3;Kapteeninpuistikko;16;Yes;003
24.941775800312996;60.16098589997938;4;Viiskulma;14;Yes;004
24.93628529982675;60.157948300373846;5;Sepankatu;32;Yes;005
24.929709900391629;60.162225100108344;6;Hietalahdentori;24;Yes;006
24.945959999554361;60.163103199952786;7;Designmuseo;14;Yes;007
24.939149900447603;60.165288299815245;8;Vanha kirkkopuisto;24;Yes;008
24.944134928883898;60.166911666939939;9;Erottajan aukio;1;Yes;009